,City,Country,Date,Lat,Lng,Cloudiness %,Humidity %,Max temp (F),Wind speed (mph)
0,Qaanaaq,GL,1658532169,77.484,-69.3632,100,94,37.9,7.99
1,Hermanus,ZA,1658532169,-34.4187,19.2345,100,83,53.8,12.97
2,Mataura,NZ,1658532170,-46.1927,168.8643,13,80,37.47,2.93
3,Helena,US,1658532170,46.5927,-112.0361,0,25,87.17,21.85
4,Atuona,PF,1658532170,-9.8,-139.0333,11,77,77.7,14.9
5,La Ronge,CA,1658532171,55.1001,-105.2842,100,67,59.25,11.5
6,Vao,NC,1658532171,-22.6667,167.4833,89,88,74.55,24.7
7,Arraial do Cabo,BR,1658532171,-22.9661,-42.0278,2,87,71.62,17.74
8,Alugan,PH,1658532172,12.2188,125.4808,100,81,81.18,1.59
9,Matara,LK,1658532172,5.9485,80.5353,99,89,77.59,13.47
10,Rikitea,PF,1658532173,-23.1203,-134.9692,100,75,72.09,9.84
11,Ushuaia,AR,1658532020,-54.8,-68.3,75,87,35.26,16.11
12,Nelson Bay,AU,1658531929,-32.7167,152.15,91,86,64.0,1.01
13,Gornyak,RU,1658532174,50.9942,81.4661,23,69,58.62,4.72
14,Torbay,CA,1658532174,47.6666,-52.7314,75,70,72.88,9.22
15,Cidreira,BR,1658532175,-30.1811,-50.2056,98,94,62.94,5.66
16,Saint-Philippe,RE,1658532175,-21.3585,55.7679,47,84,65.79,14.32
17,Saint George,US,1658532125,37.1041,-113.5841,0,13,108.63,19.57
18,Ponta do Sol,PT,1658532176,32.6667,-17.1,15,80,71.71,4.72
19,Broken Hill,AU,1658532176,-31.95,141.4333,99,67,56.14,8.86
20,Saskylakh,RU,1658532176,71.9167,114.0833,92,59,53.08,7.65
21,Port Hardy,CA,1658531895,50.6996,-127.4199,75,82,60.98,10.36
22,Saint-Augustin,CA,1658532177,51.226,-58.6502,100,91,57.72,11.27
23,Saint Paul Harbor,US,1658532135,57.79,-152.4072,100,67,54.91,10.36
24,Nome,US,1658532008,64.5011,-165.4064,100,87,49.15,10.36
25,Khanbari,NP,1658532177,27.3747,87.2039,100,93,71.91,3.13
26,Talnakh,RU,1658531924,69.4865,88.3972,50,52,67.21,3.87
27,Tooele,US,1658531987,40.5308,-112.2983,0,23,95.65,14.97
28,Hithadhoo,MV,1658532178,-0.6,73.0833,100,72,81.84,7.85
29,Itarema,BR,1658532178,-2.9248,-39.9167,79,78,79.36,15.52
30,Nikolskoye,RU,1658531911,59.7035,30.7861,16,79,67.91,5.64
31,Dudinka,RU,1658532179,69.4058,86.1778,69,62,67.62,8.57
32,São Filipe,CV,1658532179,14.8961,-24.4956,72,81,75.18,1.83
33,Tasiilaq,GL,1658532070,65.6145,-37.6368,34,73,37.56,7.94
34,Airai,TL,1658532180,-8.9266,125.4092,92,73,55.15,3.02
35,Ugoofaaru,MV,1658532180,5.6667,73.0,100,77,81.77,17.09
36,Malysheva,RU,1658532181,57.1185,61.4035,34,94,55.62,5.08
37,Camopi,GF,1658532181,3.1655,-52.3158,98,97,72.9,3.11
38,New Norfolk,AU,1658532181,-42.7826,147.0587,100,85,51.93,2.35
39,Itupiranga,BR,1658532182,-5.1347,-49.3267,27,49,77.32,0.98
40,Mayo,US,1658531907,38.8876,-76.5119,0,61,93.92,8.05
41,Guerrero Negro,MX,1658532182,27.9769,-114.0611,21,60,75.09,21.43
42,Ribeira Grande,PT,1658532183,38.5167,-28.7,80,89,73.65,5.73
43,Bambous Virieux,MU,1658532056,-20.3428,57.7575,75,88,68.25,10.36
44,Cape Town,ZA,1658532001,-33.9258,18.4232,75,92,55.89,5.75
45,Kapaa,US,1658532183,22.0752,-159.319,20,64,84.52,14.97
46,Tuktoyaktuk,CA,1658531911,69.4541,-133.0374,75,73,69.8,8.05
47,Albany,US,1658532031,42.6001,-73.9662,46,52,85.68,4.65
48,Malabo,GQ,1658532055,3.75,8.7833,100,92,75.58,6.55
49,Port Macquarie,AU,1658532184,-31.4333,152.9167,52,79,57.88,11.3
50,Port Alfred,ZA,1658531912,-33.5906,26.891,100,67,62.31,10.89
51,Busselton,AU,1658532185,-33.65,115.3333,73,80,59.47,20.87
52,Beisfjord,NO,1658532185,68.3751,17.5988,100,91,53.04,6.42
53,Touros,BR,1658531899,-5.1989,-35.4608,100,85,75.6,13.98
54,Hasaki,JP,1658532185,35.7333,140.8333,0,77,86.29,17.45
55,Hilo,US,1658532140,19.7297,-155.09,40,79,86.29,5.75
56,Chui,UY,1658532063,-33.6971,-53.4616,92,98,54.43,4.88
57,Punta Arenas,CL,1658532016,-53.15,-70.9167,0,75,35.71,13.8
58,Dikson,RU,1658532186,73.5069,80.5464,88,78,51.62,14.0
59,Bluff,NZ,1658532187,-46.6,168.3333,8,81,37.8,6.33
60,Klyuchi,RU,1658532187,52.2667,79.1667,20,72,61.86,5.39
61,Safi,MA,1658532187,32.2994,-9.2372,69,69,78.24,19.44
62,Berdigestyakh,RU,1658532188,62.0989,126.6992,98,88,65.68,0.92
63,Chunoyar,RU,1658532188,57.4467,97.3217,99,91,59.81,1.86
64,North Bend,US,1658532188,43.4065,-124.2243,0,79,74.91,20.71
65,Pijijiapan,MX,1658532189,15.7011,-93.23,96,74,84.58,4.7
66,Bredasdorp,ZA,1658532189,-34.5322,20.0403,100,91,55.13,9.31
67,Narsaq,GL,1658532189,60.9167,-46.05,42,74,59.22,4.56
68,Ullapool,GB,1658532190,57.8987,-5.1604,100,88,56.35,5.26
69,Dwārka,IN,1658532190,22.2394,68.9678,79,83,81.77,21.03
70,Mahébourg,MU,1658532068,-20.4081,57.7,75,88,68.29,10.36
71,Laguna,US,1658531972,38.421,-121.4238,0,16,104.14,10.36
72,Hirara,JP,1658532191,24.8,125.2833,20,79,86.27,9.22
73,Faanui,PF,1658532191,-16.4833,-151.75,20,73,78.19,9.51
74,Kohlu,PK,1658532191,29.8962,69.252,98,74,77.38,3.51
75,Ishurdi,BD,1658532192,24.1333,89.0833,99,88,79.77,4.97
76,St. George's,GD,1658532192,12.0564,-61.7485,20,78,80.28,12.66
77,Mar del Plata,AR,1658531996,-38.0023,-57.5575,68,89,48.87,2.3
78,Batagay-Alyta,RU,1658532193,67.8006,130.4114,100,65,65.93,7.76
79,Kastamonu Province,TR,1658532193,41.5,33.6667,0,77,51.96,3.67
80,Nyurba,RU,1658532193,63.2842,118.3319,100,81,66.4,4.03
81,Flinders,AU,1658532194,-34.5833,150.8552,76,93,57.06,5.99
82,Vozhega,RU,1658532194,60.4725,40.2213,29,79,59.85,4.81
83,Omboué,GA,1658532195,-1.5746,9.2618,63,83,70.48,8.01
84,Naze,JP,1658532195,28.3667,129.4833,28,74,81.52,7.23
85,Juba,SS,1658532195,4.8517,31.5825,86,83,71.98,5.3
86,Pangkalanbuun,ID,1658532196,-2.6833,111.6167,67,98,73.62,1.77
87,Cervo,ES,1658532196,43.6702,-7.4101,42,78,63.97,9.89
88,Saint-François,FR,1658532197,46.4154,3.9054,0,64,71.04,9.22
89,Bjørnevatn,NO,1658532197,69.6672,29.9847,75,87,53.94,3.44
90,Vaini,TO,1658532197,-21.2,-175.2,75,94,73.56,6.91
91,Dingle,PH,1658532198,10.9995,122.6711,82,88,79.32,3.36
92,Erdenet,MN,1658532198,49.0333,104.0833,96,88,50.5,3.18
93,Sri Aman,MY,1658532199,1.2376,111.4621,87,100,73.45,3.44
94,Beringovskiy,RU,1658532199,63.05,179.3167,100,87,46.89,9.57
95,Saint Anthony,US,1658532199,45.0205,-93.218,0,39,94.17,11.5
96,Cabo San Lucas,MX,1658531957,22.8909,-109.9124,0,34,99.61,6.91
97,Krasnoyarskiy,RU,1658532200,51.965,59.8967,19,59,62.42,5.53
98,Butaritari,KI,1658532200,3.0707,172.7902,47,75,81.37,9.62
99,Padang,ID,1658532200,-0.9492,100.3543,98,85,77.9,4.0
100,Hobart,AU,1658531919,-42.8794,147.3294,75,84,52.27,1.14
101,Hopkinsville,US,1658531917,36.8656,-87.4886,0,58,100.62,4.7
102,Longyearbyen,SJ,1658532201,78.2186,15.6401,75,87,48.04,2.3
103,Okha,RU,1658532053,53.5739,142.9478,98,67,59.83,9.1
104,Christiana,ZA,1658532202,-27.914,25.1611,84,53,57.74,7.85
105,Jamestown,US,1658531709,42.097,-79.2353,0,50,82.02,11.5
106,Cherskiy,RU,1658532133,68.75,161.3,14,53,48.96,4.18
107,Aklavik,CA,1658532202,68.2191,-135.0107,75,72,66.2,12.66
108,Acarí,PE,1658532202,-15.4311,-74.6158,25,76,63.99,4.05
109,Puerto Ayora,EC,1658532203,-0.7393,-90.3518,38,88,70.56,7.0
110,Barrow,US,1658532203,71.2906,-156.7887,100,87,41.02,11.5
111,Torrington,US,1658532204,41.8007,-73.1212,82,63,88.77,1.99
112,Steamboat Springs,US,1658531994,40.485,-106.8317,75,27,89.19,12.66
113,College,US,1658532204,64.8569,-147.8028,75,64,62.55,6.91
114,Houston,US,1658532004,29.7633,-95.3633,0,68,89.96,10.36
115,Soyo,AO,1658532205,-6.1349,12.3689,75,88,68.45,4.81
116,Cayenne,GF,1658532205,4.9333,-52.3333,77,1,81.09,0.0
117,Qarqīn,AF,1658532205,37.4185,66.0436,0,10,89.11,7.65
118,Bambanglipuro,ID,1658532206,-7.95,110.2833,82,88,73.36,4.74
119,Rawson,AR,1658532206,-43.3002,-65.1023,98,35,41.22,4.0
120,Toktogul,KG,1658532207,41.8708,72.9402,0,33,75.31,2.33
121,Pangnirtung,CA,1658532207,66.1451,-65.7125,9,56,54.72,3.0
122,Tsumeb,NA,1658532207,-19.2333,17.7167,17,41,60.94,8.59
123,Sistranda,NO,1658532208,63.7256,8.834,29,87,51.76,16.24
124,Constitución,CL,1658532208,-35.3333,-72.4167,30,93,53.67,8.16
125,Coquimbo,CL,1658532197,-29.9533,-71.3436,100,82,55.13,2.3
126,Monze,ZM,1658532209,-16.2833,27.4833,9,61,57.02,6.06
127,Butembo,CD,1658532209,0.15,29.2833,98,84,58.06,2.8
128,Santa Marta,CO,1658532158,11.2408,-74.199,99,89,80.22,9.44
129,Vostok,RU,1658532209,46.4856,135.8833,95,84,62.51,2.46
130,Leningradskiy,RU,1658532210,69.3833,178.4167,89,83,37.99,9.06
131,Sibolga,ID,1658532210,1.7427,98.7792,93,87,75.22,4.29
132,Hong Kong,HK,1658531934,22.2855,114.1577,44,82,88.32,1.01
133,Chokurdakh,RU,1658532211,70.6333,147.9167,99,49,52.86,13.67
134,Luang Prabang,LA,1658532211,19.8856,102.1347,99,100,72.5,1.25
135,Olafsvik,IS,1658532211,64.8945,-23.7142,31,80,53.78,4.16
136,Upernavik,GL,1658532212,72.7868,-56.1549,100,94,42.6,19.42
137,Pevek,RU,1658532212,69.7008,170.3133,98,89,32.92,5.7
138,Verkhoyansk,RU,1658532213,67.5447,133.385,97,68,69.4,7.74
139,Byron Bay,AU,1658532016,-28.65,153.6167,100,82,57.94,20.83
140,Morondava,MG,1658532213,-20.2833,44.2833,5,70,67.89,2.24
141,Kavieng,PG,1658532213,-2.5744,150.7967,28,76,82.6,10.49
142,Tilichiki,RU,1658532214,60.4667,166.1,8,51,59.72,1.36
143,Kaeo,NZ,1658532214,-35.1,173.7833,91,71,56.14,15.46
144,Dunedin,NZ,1658532197,-45.8742,170.5036,12,63,48.79,8.01
145,Grove City,US,1658532215,39.8815,-83.093,0,49,88.02,13.8
146,Castro,BR,1658532215,-24.7911,-50.0119,81,71,59.0,2.19
147,Labuhan,ID,1658532215,-6.8844,112.2051,60,85,74.66,7.2
148,Delījān,IR,1658532216,33.9905,50.6838,0,12,85.86,5.17
149,Alice Springs,AU,1658532216,-23.7,133.8833,1,40,53.15,0.0
150,George Town,MY,1658531940,5.4112,100.3354,20,95,78.89,0.0
151,Kazygurt,KZ,1658532217,41.7589,69.3864,0,16,81.55,6.76
152,Samarai,PG,1658532217,-10.6167,150.6667,34,77,80.89,5.35
153,Vengerovo,RU,1658532217,55.6848,76.7471,81,89,51.37,7.31
154,Oga,IT,1658532218,46.4631,10.347,89,78,65.08,0.92
155,Paraná,AR,1658532218,-31.732,-60.5238,35,83,64.54,8.21
156,Laje,BR,1658532219,-10.1833,-40.9667,86,77,67.26,4.65
157,Los Llanos de Aridane,ES,1658532219,28.6585,-17.9182,0,83,67.75,17.27
158,Zaysan,KZ,1658532219,47.4667,84.8667,97,75,64.78,3.18
159,Kalāleh,IR,1658532220,37.3807,55.4916,86,83,76.87,7.61
160,Victor Harbor,AU,1658532220,-35.5667,138.6167,65,93,53.67,8.39
161,Cartagena,CO,1658531975,10.3997,-75.5144,40,78,82.02,5.75
162,Baykit,RU,1658532221,61.67,96.37,99,89,61.29,2.55
163,Bengkulu,ID,1658532221,-3.8004,102.2655,80,87,75.02,4.36
164,Zalegoshch',RU,1658532221,52.9008,36.8869,24,95,56.77,7.74
165,Port Hedland,AU,1658531959,-20.3167,118.5667,0,100,64.45,6.91
166,Harjavalta,FI,1658532222,61.3167,22.1333,97,98,65.93,5.82
167,Avera,US,1658532222,33.194,-82.5271,100,59,87.31,5.03
168,Al Bardīyah,LY,1658532223,31.7561,25.0865,0,72,76.98,11.07
169,Yellowknife,CA,1658532223,62.456,-114.3525,20,52,68.52,10.36
170,Bethel,US,1658532223,41.3712,-73.414,23,62,86.36,6.69
171,Bonthe,SL,1658532224,7.5264,-12.505,94,82,77.25,10.02
172,Vila Velha,BR,1658532224,-20.3297,-40.2925,40,91,73.35,4.61
173,Khani,GE,1658532225,41.9563,42.9566,33,93,54.97,3.53
174,Sarny,UA,1658532225,51.338,26.6019,1,73,63.97,5.48
175,Kastornoye,RU,1658532225,51.8334,38.1302,52,95,55.99,8.86
176,Avarua,CK,1658532226,-21.2078,-159.775,80,78,78.85,8.05
177,Eidfjord,NO,1658532226,60.4675,7.0719,91,78,67.69,1.14
178,Gizo Government Station,SB,1658532227,-8.103,156.8419,2,71,83.35,6.93
179,Omsukchan,RU,1658532227,62.5333,155.8,75,38,59.13,6.31
180,Ikeda,JP,1658532227,34.8221,135.4298,40,85,82.2,9.22
181,Tuatapere,NZ,1658532051,-46.1333,167.6833,13,84,42.1,4.0
182,Saint-Joseph,RE,1658532228,-21.3667,55.6167,21,81,64.78,12.91
183,Saldanha,ZA,1658532228,-33.0117,17.9442,100,89,53.65,8.86
184,Ancud,CL,1658532229,-41.8697,-73.8203,100,97,41.23,18.43
185,Eyl,SO,1658532229,7.9803,49.8164,79,73,77.41,23.58
186,Grand-Santi,GF,1658532229,4.25,-54.3833,65,99,73.09,1.9
187,Redcar,GB,1658532230,54.6166,-1.06,99,57,58.08,5.01
188,Pemangkat,ID,1658532230,1.1667,108.9667,37,89,76.39,5.37
189,Port-Gentil,GA,1658532231,-0.7193,8.7815,100,83,75.16,10.36
190,Chengde,CN,1658532231,40.9725,117.9361,100,92,67.06,2.91
191,Makkah al Mukarramah,SA,1658532047,21.4267,39.8261,21,57,87.24,3.62
192,Makakilo City,US,1658532231,21.3469,-158.0858,20,50,88.12,13.8
193,Ambilobe,MG,1658532232,-13.2,49.05,0,81,62.91,3.85
194,Grand Gaube,MU,1658531985,-20.0064,57.6608,1,81,68.4,1.99
195,Pingliang,CN,1658532232,35.5392,106.6861,0,80,62.78,3.2
196,Salalah,OM,1658532232,17.0151,54.0924,100,94,77.09,5.75
197,Haines Junction,CA,1658532233,60.7522,-137.5108,86,39,62.55,11.5
198,Staraya Toropa,RU,1658532233,56.2801,31.6702,100,80,59.67,3.38
199,Natal,BR,1658532234,-5.795,-35.2094,20,88,77.22,6.91
200,Santana do Paraíso,BR,1658532234,-19.3636,-42.5686,0,68,61.12,1.14
201,Luga,RU,1658532234,58.7372,29.8453,66,79,61.97,5.23
202,Stykkisholmur,IS,1658532235,65.0757,-22.7297,60,81,54.21,3.71
203,Khatanga,RU,1658532235,71.9667,102.5,100,89,41.81,15.19
204,Aberdeen,GB,1658532014,57.1437,-2.0981,100,90,54.09,4.61
205,Pingdingshan,CN,1658532236,33.7385,113.3012,20,83,71.28,4.23
206,San Quintín,MX,1658532236,30.4833,-115.95,93,65,73.31,15.97
207,Itoman,JP,1658532237,26.1247,127.6694,75,84,86.4,10.36
208,Antalaha,MG,1658532237,-14.9003,50.2788,33,90,66.24,6.58
209,Verkhnyaya Inta,RU,1658532238,65.9811,60.3094,78,91,40.51,8.34
210,Kruisfontein,ZA,1658532238,-34.0033,24.7314,100,79,48.88,6.31
211,San Patricio,US,1658532239,28.017,-97.5169,2,46,94.17,16.64
212,Shingū,JP,1658532239,33.7333,135.9833,1,67,80.91,2.37
213,Fort Nelson,CA,1658532240,58.8053,-122.7002,40,33,74.79,6.91
214,Hokitika,NZ,1658532240,-42.7167,170.9667,100,72,47.3,6.42
215,Shetpe,KZ,1658532241,44.1667,52.1167,60,63,74.1,16.22
216,Norrtälje,SE,1658532241,59.758,18.705,95,96,64.83,4.94
217,Gorom-Gorom,BF,1658532242,14.4439,-0.2361,47,43,90.59,10.49
218,Arman',RU,1658532242,59.7,150.1667,53,66,73.02,2.95
219,Seabra,BR,1658532242,-12.4186,-41.7703,28,74,62.17,2.86
220,Ranong,TH,1658532243,9.9658,98.6348,93,85,75.13,3.78
221,Ashland,US,1658532187,40.8167,-82.2665,23,58,85.26,9.17
222,Clyde River,CA,1658532243,70.4692,-68.5914,75,62,57.43,13.8
223,Takoradze,GH,1658532011,4.8845,-1.7554,79,81,74.43,8.77
224,Departamento de Maldonado,UY,1658532244,-34.6667,-54.9167,11,97,52.99,4.79
225,Dno,RU,1658532244,57.8277,29.9637,46,83,60.31,5.19
226,Sinjār,IQ,1658532245,36.3209,41.8754,0,15,85.59,6.24
227,Kentau,KZ,1658532245,43.5206,68.5094,0,22,84.85,15.88
228,Sitka,US,1658532246,57.0531,-135.33,100,82,55.29,8.05
229,Iqaluit,CA,1658532246,63.7506,-68.5145,75,81,49.73,3.44
230,Balkanabat,TM,1658532246,39.5108,54.3671,0,70,77.4,8.79
231,Port Elizabeth,ZA,1658532247,-33.918,25.5701,0,84,58.32,8.05
232,Narón,ES,1658532247,43.5167,-8.1528,0,86,64.6,8.72
233,Tsalenjikha,GE,1658532248,42.6044,42.0682,35,94,61.59,4.18
234,Thompson,CA,1658532248,55.7435,-97.8558,100,77,59.16,2.3
235,Geraldton,AU,1658532248,-28.7667,114.6,75,87,52.21,14.97
236,Boddam,GB,1658532249,57.4667,-1.7833,100,75,53.98,5.88
237,Lagoa,PT,1658532249,39.05,-27.9833,100,91,72.16,8.66
238,East London,ZA,1658531995,-33.0153,27.9116,29,50,66.42,11.68
239,Mikhaylovka,RU,1658532250,50.06,43.2379,80,93,61.79,3.11
240,Yanam,IN,1658532250,16.7333,82.2167,100,88,77.7,7.07
241,Bulolo,PG,1658532250,-7.2,146.65,45,81,76.68,2.06
242,Norman Wells,CA,1658532251,65.282,-126.8329,75,36,78.84,11.5
243,Rabo de Peixe,PT,1658532251,37.8,-25.5833,20,68,73.27,3.44
244,Palauig,PH,1658532252,15.435,119.9045,24,75,82.72,2.95
245,Río Gallegos,AR,1658532252,-51.6226,-69.2181,0,69,35.65,14.97
246,San Cristobal,VE,1658532137,7.7669,-72.225,61,82,75.38,3.27
247,Carnarvon,AU,1658532253,-24.8667,113.6333,6,67,61.65,9.53
248,Basoko,CD,1658532253,1.2391,23.616,100,92,71.71,4.76
249,Zeya,RU,1658532254,53.75,127.2667,7,62,72.73,0.78
250,Zuwārah,LY,1658532254,32.9312,12.082,0,68,78.66,12.06
251,Carutapera,BR,1658532255,-1.195,-46.02,55,86,77.36,6.51
252,Zelenoborskiy,RU,1658532255,66.845,32.3622,94,92,56.34,5.68
253,Maniitsoq,GL,1658532256,65.4167,-52.9,87,87,45.39,4.97
254,Caravelas,BR,1658532257,-17.7125,-39.2481,2,81,69.85,4.99
255,Aojiang,CN,1658532257,22.9421,116.0359,8,81,82.87,4.38
256,Klaksvík,FO,1658532257,62.2266,-6.589,100,84,50.92,7.49
257,Sakakah,SA,1658532258,29.9697,40.2064,1,16,92.77,9.42
258,Kahului,US,1658532258,20.8947,-156.47,40,58,89.62,21.85
259,Belle Glade,US,1658532259,26.6845,-80.6676,100,70,86.05,8.66
260,Sambava,MG,1658532259,-14.2667,50.1667,40,88,66.83,10.49
261,Westport,US,1658532260,41.1415,-73.3579,75,62,87.62,9.22
262,Kabinda,CD,1658532260,-6.1333,24.4833,88,38,73.53,4.16
263,Piet Retief,ZA,1658532260,-27.0071,30.8132,5,94,46.24,3.94
264,Delta,NG,1658532261,5.5,6.0,100,91,74.23,3.56
265,Krasnorechenskiy,RU,1658532261,44.6265,135.3532,91,86,61.59,2.66
266,Urrutia,HN,1658532262,14.7427,-87.0422,100,90,76.21,1.74
267,Srednekolymsk,RU,1658532262,67.45,153.6833,8,49,53.01,13.24
268,Black River,JM,1658532262,18.0264,-77.8487,49,68,85.84,9.33
269,Lázaro Cárdenas,MX,1658532263,17.9583,-102.2,96,67,85.8,6.58
270,Son La,VN,1658532198,21.3167,103.9,55,99,67.87,0.89
271,Morón,AR,1658532263,-34.6534,-58.6198,4,85,57.06,6.42
272,Qurayyat,SA,1658532264,31.3318,37.3428,0,57,77.18,11.5
273,Dhārchula,IN,1658532264,29.85,80.5333,100,95,73.11,0.76
274,Jadu,LY,1658532264,31.953,12.0261,0,43,71.22,6.8
275,Alto Paraguai,BR,1658532265,-14.5136,-56.4825,2,33,78.98,4.38
276,Souillac,MU,1658532265,-20.5167,57.5167,75,88,68.38,10.36
277,Ahipara,NZ,1658532265,-35.1667,173.1667,100,70,57.09,12.03
278,Yangjiang,CN,1658532266,21.85,111.9667,2,85,79.23,3.56
279,Hot Springs,US,1658532266,34.5037,-93.0552,0,36,100.56,5.75
280,Kaitangata,NZ,1658532267,-46.2817,169.8464,13,86,40.3,2.84
281,Ipatinga,BR,1658532267,-19.4683,-42.5367,0,68,64.47,1.14
282,Hualmay,PE,1658532267,-11.0964,-77.6139,36,81,62.55,8.7
283,Meulaboh,ID,1658532268,4.1363,96.1285,100,85,76.98,5.3
284,Necochea,AR,1658532268,-38.5473,-58.7368,85,89,44.04,6.55
285,San Jose,US,1658531976,37.3394,-121.895,20,42,92.84,13.8
286,Baoqing,CN,1658532268,46.3317,132.2111,79,89,62.22,7.07
287,Togur,RU,1658532269,58.3631,82.8265,77,92,49.51,12.53
288,Diffa,NE,1658532269,13.3154,12.6113,87,58,85.19,5.97
289,Laramie,US,1658532270,41.3114,-105.5911,0,12,86.38,6.91
290,‘Āhuimanu,US,1658532270,21.4447,-157.8378,40,65,89.31,13.8
291,Nemuro,JP,1658532270,43.3236,145.575,100,98,58.05,15.17
292,Havøysund,NO,1658532271,70.9963,24.6622,76,89,52.03,21.12
293,Sur,OM,1658532271,22.5667,59.5289,90,69,86.16,10.11
294,Bayir,TR,1658532272,37.2687,28.2167,0,36,72.12,6.06
295,Zhezkazgan,KZ,1658532272,47.8043,67.7144,28,33,70.88,8.08
296,Camaná,PE,1658532273,-16.6228,-72.7111,76,85,60.26,4.5
297,Bābai,IN,1658532273,22.7,77.9333,100,98,74.97,4.0
298,Hofn,IS,1658532273,64.2539,-15.2082,58,91,51.94,6.38
299,Provideniya,RU,1658532274,64.3833,-173.3,76,79,46.24,6.85
300,Anloga,GH,1658532274,5.7947,0.8973,53,86,75.47,12.59
301,Tiarei,PF,1658532275,-17.5333,-149.3333,14,78,84.22,7.67
302,Lakatoro,VU,1658532275,-16.0999,167.4164,77,81,80.89,13.33
303,Fairbanks,US,1658532002,64.8378,-147.7164,100,64,62.56,6.91
304,Severo-Kuril'sk,RU,1658531980,50.6789,156.125,52,90,55.47,6.38
305,Nampula,MZ,1658532276,-15.1165,39.2666,75,94,66.15,3.44
306,Aykhal,RU,1658532276,66.0,111.5,8,69,61.47,4.0
307,San Nicolas,PH,1658532276,18.1725,120.5953,20,89,80.51,6.91
308,Moerai,PF,1658532277,-22.4333,-151.3333,88,61,73.27,11.36
309,Valdivia,CL,1658532277,-39.8142,-73.2459,100,97,53.69,10.83
310,Murmashi,RU,1658532277,68.8154,32.8115,21,100,43.21,2.24
311,Sokoni,TZ,1658532278,-6.4333,39.55,2,78,75.13,16.08
312,Port Lincoln,AU,1658532278,-34.7333,135.8667,41,76,52.2,5.64
313,Gimli,CA,1658532279,50.6336,-96.9907,35,61,72.21,7.25
314,Buraidah,SA,1658532279,26.326,43.975,32,13,88.25,8.19
315,Salinas,US,1658532244,36.6777,-121.6555,0,58,98.56,14.97
316,Yangi Marg`ilon,UZ,1658532280,40.4272,71.7189,0,41,77.72,4.61
317,Rindal,NO,1658532280,63.0565,9.2124,84,91,47.8,5.21
318,Halifax,CA,1658532097,44.6453,-63.5724,20,78,84.09,5.75
319,Walvis Bay,NA,1658532280,-22.9575,14.5053,0,77,58.15,8.05
320,Lompoc,US,1658532061,34.6391,-120.4579,0,73,73.85,24.0
321,Elizabeth City,US,1658532262,36.2946,-76.2511,0,67,91.42,8.05
322,Fortuna,US,1658532281,40.5982,-124.1573,6,70,68.94,4.0
323,Maceió,BR,1658532096,-9.6658,-35.7353,100,88,74.64,4.61
324,Dukat,RU,1658532281,62.55,155.55,67,39,57.51,5.44
325,Colac,AU,1658532282,-38.3333,143.5833,100,95,50.83,6.58
326,Jutaí,BR,1658532282,-5.1833,-68.9,89,97,74.52,1.16
327,Eydhafushi,MV,1658532282,5.1033,73.0708,100,75,81.72,16.8
328,Adrar,MR,1658532283,20.5022,-10.0711,41,46,87.73,19.51
329,Middelburg,ZA,1658532283,-25.7751,29.4648,99,73,54.16,8.57
330,Bacabal,BR,1658532284,-4.2917,-44.7917,71,53,81.5,2.01
331,Gacko,BA,1658532284,43.1672,18.5353,0,50,65.52,3.22
332,Tommot,RU,1658532284,58.9564,126.2925,100,66,75.06,0.85
333,Port Moresby,PG,1658532285,-9.4431,147.1797,75,83,80.02,11.5
334,Caconda,AO,1658532285,-13.7333,15.0667,28,34,57.83,3.13
335,Dindori,IN,1658532285,22.95,81.0833,100,94,73.92,0.89
336,Caniço,PT,1658532286,32.6333,-16.85,20,79,71.71,20.71
337,Navrongo,GH,1658532286,10.8956,-1.0921,99,88,76.06,5.21
338,Anadyr,RU,1658532287,64.75,177.4833,75,70,48.7,8.95
339,Blagoyevo,RU,1658532287,63.3667,47.9167,59,67,60.62,5.75
340,Paamiut,GL,1658532287,61.994,-49.6678,6,85,46.0,10.63
341,Youkounkoun,GN,1658532288,12.5333,-13.1333,100,99,73.81,4.47
342,Tuy Hoa,VN,1658532054,13.0833,109.3,99,88,76.24,2.95
343,Ilulissat,GL,1658532288,69.2167,-51.1,75,93,50.02,6.91
344,Umba,RU,1658532289,66.6871,34.3429,94,95,56.3,5.82
345,Lashio,MM,1658532289,22.9333,97.75,97,99,67.28,0.94
346,Suleja,NG,1658532289,9.1758,7.1808,100,98,70.34,2.8
347,Jumla,NP,1658532290,29.2747,82.1838,100,96,62.82,0.6
348,Asău,RO,1658532290,46.4333,26.4,6,81,68.95,3.69
349,Port Blair,IN,1658532290,11.6667,92.75,75,100,77.04,2.3
350,Tura,IN,1658532258,25.5198,90.2201,98,92,74.84,3.33
351,Maltahöhe,NA,1658532291,-24.8333,16.9833,2,34,54.5,4.07
352,Along,IN,1658532291,28.1667,94.7667,100,87,74.89,1.97
353,Rio Verde de Mato Grosso,BR,1658532292,-18.9181,-54.8442,8,32,77.99,3.0
354,Bubaque,GW,1658532292,11.2833,-15.8333,100,87,78.48,18.79
355,Burnie,AU,1658532060,-41.0667,145.9167,100,84,54.95,13.13
356,Monywa,MM,1658532293,22.1167,95.1333,100,82,79.3,8.61
357,Mossamedes,AO,1658532293,-15.1961,12.1522,4,82,62.65,3.96
358,Port Shepstone,ZA,1658532293,-30.7414,30.455,0,72,63.97,6.51
359,Canutama,BR,1658532294,-6.5339,-64.3831,78,71,79.0,2.13
360,Marfino,RU,1658532294,55.7028,37.3822,0,66,65.95,6.71
361,Husavik,IS,1658532294,66.0449,-17.3389,28,90,48.25,4.32
362,Broome,US,1658532295,42.2506,-75.833,20,68,82.78,1.99
363,Pacific Grove,US,1658532294,36.6177,-121.9166,0,74,89.38,10.36
364,Cabedelo,BR,1658532011,-6.9811,-34.8339,95,80,74.07,13.6
365,Kiryat Gat,IL,1658532063,31.61,34.7642,1,100,77.68,1.61
366,Tomball,US,1658532084,30.0972,-95.6161,0,77,84.15,9.22
367,Cravo Norte,CO,1658532296,6.3017,-70.2041,83,85,78.57,6.13
368,Krasnoborsk,RU,1658532296,61.5598,45.934,69,84,61.16,4.25
369,Key West,US,1658532209,24.5557,-81.7826,20,67,91.4,9.22
370,Lebu,CL,1658532143,-37.6167,-73.65,100,97,53.28,12.17
371,Krasnovishersk,RU,1658532297,60.4078,57.082,17,68,47.21,3.58
372,Aksarka,RU,1658532297,66.5606,67.7975,100,92,46.22,5.61
373,Fare,PF,1658532298,-16.7,-151.0167,9,75,77.92,9.51
374,Kampli,IN,1658532298,15.4,76.6167,100,80,75.99,10.58
375,Sept-Îles,CA,1658532298,50.2001,-66.3821,75,94,65.05,2.3
376,Palana,RU,1658532299,59.1167,159.9667,20,55,57.47,6.87
377,Herenthout,BE,1658532299,51.1381,4.7573,96,85,63.0,6.8
378,Astoria,US,1658532138,46.1879,-123.8313,75,75,66.43,13.8
379,Tevaitoa,PF,1658532300,-16.7833,-151.5,20,75,77.99,9.57
380,Rocha,UY,1658532266,-34.4833,-54.3333,32,97,51.4,3.91
381,Kenai,US,1658532041,60.5544,-151.2583,0,68,62.02,17.27
382,Chum Phae,TH,1658532300,16.5443,102.0992,100,92,74.26,2.71
383,Sampit,ID,1658532300,-2.5333,112.95,71,98,73.92,1.43
384,Locri,IT,1658532301,38.2414,16.2623,0,62,78.31,10.02
385,Emerald,AU,1658532237,-23.5333,148.1667,0,69,60.35,15.66
386,Muisne,EC,1658532301,0.6,-80.0333,96,81,73.42,9.98
387,Témiscaming,CA,1658532302,46.7212,-79.0971,64,44,78.31,8.05
388,Sopot,PL,1658532302,54.4418,18.56,20,91,65.71,3.44
389,Peniche,PT,1658532303,39.3558,-9.3811,1,92,66.29,15.21
390,Yumen,CN,1658532303,40.2833,97.2,0,16,74.17,9.95
391,Cortez,US,1658532303,37.3489,-108.5859,0,16,99.36,10.36
392,Serenje,ZM,1658532304,-13.2325,30.2352,21,70,53.87,5.93
393,Portland,US,1658532199,45.5234,-122.6762,20,52,80.91,10.36
394,Skjervøy,NO,1658532304,70.0311,20.9714,100,81,51.8,15.73
395,Machalí,CL,1658532305,-34.1833,-70.6667,8,56,54.93,2.46
396,Innisfail,AU,1658532305,-17.5333,146.0333,7,69,68.47,6.33
397,Chissamba,AO,1658532305,-12.1667,17.3333,23,35,61.56,3.18
398,Naliya,IN,1658532307,23.2667,68.8333,100,85,81.77,17.22
399,Dingzhou,CN,1658532307,38.5131,114.9956,92,77,73.51,5.12
400,Malakal,SS,1658532308,9.5334,31.6605,95,79,76.12,3.76
401,Te Anau,NZ,1658532308,-45.4167,167.7167,58,86,38.62,1.59
402,Yar-Sale,RU,1658532308,66.8333,70.8333,100,95,44.65,14.41
403,Namatanai,PG,1658532309,-3.6667,152.4333,10,64,83.17,6.71
404,Lebyazh'ye,RU,1658532309,55.2689,66.4947,36,92,56.5,7.18
405,Laas,IT,1658532135,46.6166,10.7002,90,81,72.48,3.36
406,Ayan,RU,1658532310,56.45,138.1667,39,83,61.12,9.78
407,Sebrovo,RU,1658532310,50.0981,43.2976,85,92,61.83,3.33
408,Veshenskaya,RU,1658532310,49.6303,41.7334,100,79,61.07,4.09
409,Whitecourt,CA,1658532311,54.1502,-115.6855,75,35,72.64,8.05
410,Kurayoshi,JP,1658532311,35.4333,133.8167,67,87,76.91,6.22
411,Tazovsky,RU,1658532311,67.4667,78.7,100,96,45.54,10.09
412,Okhotsk,RU,1658532312,59.3833,143.3,92,77,63.21,3.98
413,Huarmey,PE,1658532312,-10.0681,-78.1522,10,82,63.73,10.04
414,Tshane,BW,1658532312,-24.0196,21.8684,44,45,59.02,10.13
415,Bosaso,SO,1658532313,11.2842,49.1816,46,43,88.56,23.42
416,Kailua,US,1658532205,21.4022,-157.7394,40,68,89.58,13.8
417,Vestmannaeyjar,IS,1658532313,63.4427,-20.2734,100,90,51.31,2.73
418,Salāya,IN,1658532314,22.3167,69.6,98,83,81.43,18.21
419,Doha,QA,1658532314,25.2867,51.5333,0,77,93.51,3.44
420,Sānchor,IN,1658532314,24.7553,71.7722,96,84,82.36,15.03
421,Guiyang,CN,1658532315,26.5833,106.7167,20,88,72.09,6.71
422,Thinadhoo,MV,1658532166,0.5333,72.9333,100,79,79.61,8.34
423,Polis,CY,1658532315,35.0367,32.4264,0,58,75.02,2.57
424,Catuday,PH,1658532316,16.2923,119.8062,2,80,80.82,5.84
425,Totskoye,RU,1658532316,52.5248,52.7623,91,69,66.54,7.31
426,Soe,ID,1658532316,-9.8607,124.284,84,84,60.46,3.62
427,Manokwari,ID,1658532317,-0.8667,134.0833,47,72,81.23,5.26
428,Kiama,AU,1658532317,-34.6833,150.8667,86,91,59.0,1.99
429,Tiksi,RU,1658532318,71.6872,128.8694,87,80,46.4,7.4
430,Pahlgām,IN,1658532318,34.0333,75.3333,100,97,63.37,2.8
431,Korla,CN,1658532214,41.7597,86.1469,0,25,78.58,4.07
432,Belmonte,BR,1658532319,-15.8631,-38.8828,29,83,71.78,8.55
433,Codrington,AU,1658532296,-38.2667,141.9667,100,94,51.04,11.16
434,Port Pirie,AU,1658532319,-33.1833,138.0167,25,70,55.85,6.51
435,Bloemhof,ZA,1658532319,-27.6469,25.607,78,53,57.25,7.54
436,Statesville,US,1658532320,35.7826,-80.8873,0,62,91.26,4.61
437,Saint-Leu,RE,1658532320,-21.15,55.2833,3,72,69.31,0.56
438,Akdepe,TM,1658532320,42.0551,59.3788,2,19,84.29,8.01
439,Pala,TD,1658532321,9.3642,14.9046,98,96,71.13,2.35
440,Icod de los Vinos,ES,1658532321,28.3724,-16.7119,40,62,74.34,13.78
441,Sørkjosen,NO,1658532321,69.8,20.9333,100,93,51.8,1.14
442,Camacha,PT,1658532293,33.0833,-16.3333,75,73,67.42,10.36
443,Berlevåg,NO,1658532322,70.8578,29.0864,75,82,53.4,17.27
444,Saint-Pierre,RE,1658532322,-21.3393,55.4781,0,71,69.91,9.22
445,Iwanai,JP,1658532322,42.9744,140.5089,100,99,67.73,3.74
446,Goba,ET,1658532323,7.0167,39.9833,40,91,49.35,3.67
447,Milos,GR,1658532323,36.75,24.4333,0,76,74.5,11.56
448,Anchorage,US,1658532139,61.2181,-149.9003,100,78,56.75,9.22
449,Oussouye,SN,1658532063,12.485,-16.5469,100,92,76.89,14.79
450,Murray Bridge,AU,1658532324,-35.1167,139.2667,98,84,53.33,6.24
451,Morant Bay,JM,1658532324,17.8815,-76.4093,8,77,85.62,11.63
452,Denpasar,ID,1658532154,-8.65,115.2167,40,83,78.46,12.66
453,Margate,GB,1658532325,51.3813,1.3862,79,84,63.9,1.99
454,Nānākuli,US,1658532206,21.3906,-158.1547,20,47,89.55,11.5
455,Tourlaville,FR,1658532325,49.6383,-1.5664,100,94,62.02,5.75
456,Sooke,CA,1658532325,48.3746,-123.7276,36,70,73.38,27.63
457,Nhulunbuy,AU,1658532326,-12.2333,136.7667,69,78,70.41,4.61
458,Sarkand,KZ,1658532326,45.41,79.9186,2,35,71.13,5.28
459,Whitehorse,CA,1658532152,60.7161,-135.0538,100,58,56.17,13.0
460,Gornopravdinsk,RU,1658532327,60.05,69.9,55,94,48.04,3.67
461,Yulara,AU,1658532327,-25.2406,130.9889,7,35,55.94,7.25
462,Torres,BR,1658532327,-29.3353,-49.7269,76,84,69.82,0.43
463,Baharly,TM,1658532328,38.4362,57.4316,0,58,85.26,5.82
464,Dalvik,IS,1658532328,65.9702,-18.5286,54,90,48.13,3.22
465,Pandan,PH,1658532329,14.0453,124.1694,100,84,82.17,3.91
466,Morros,BR,1658532329,-9.4467,-46.3003,3,31,76.44,4.85
467,Ratnagiri,IN,1658532329,16.9833,73.3,100,82,78.84,6.46
468,Isangel,VU,1658532330,-19.55,169.2667,75,83,78.91,1.14
469,Ixtapa,MX,1658532330,20.7,-105.2,75,51,92.23,6.91
470,Tutóia,BR,1658532330,-2.7619,-42.2744,67,78,80.47,11.65
471,Chicama,PE,1658532151,-7.8447,-79.1469,5,78,59.54,8.75
472,Mabaruma,GY,1658532331,8.2,-59.7833,12,89,75.22,3.15
473,Birin,NP,1658532331,26.8865,88.0718,97,86,64.45,4.76
474,Vite,IN,1658532332,17.2833,74.55,100,90,70.34,10.71
475,Lüderitz,NA,1658532332,-26.6481,15.1594,49,68,58.12,15.12
476,Kieta,PG,1658532332,-6.2167,155.6333,4,62,83.73,3.58
477,Wahpeton,US,1658532333,46.2652,-96.6059,0,35,92.12,0.0
478,Kurunegala,LK,1658532333,7.4863,80.3623,89,95,73.8,5.61
479,Gouré,NE,1658532127,13.9835,10.2704,92,52,86.2,6.26
480,Trojes,AL,1658532334,41.756,19.962,0,44,70.56,5.86
481,Khulo,GE,1658532334,41.644,42.3129,45,95,53.17,1.01
482,Phuket,TH,1658532334,8.0,98.25,75,89,84.13,2.3
483,Goshāinganj,IN,1658532335,26.5833,82.3833,100,79,82.45,13.0
484,Henderson,US,1658532072,36.0397,-114.9819,0,11,114.24,8.05
485,Cartagena del Chairá,CO,1658532335,1.3349,-74.8429,97,79,77.07,2.3
486,Goderich,CA,1658532149,43.7501,-81.7165,0,42,82.9,8.05
487,Karratha,AU,1658532336,-20.7377,116.8463,0,60,67.71,8.55
488,Tahlequah,US,1658532336,35.9154,-94.97,0,23,97.02,8.05
489,Arlit,NE,1658532337,18.7369,7.3853,71,31,94.06,24.11
490,Henties Bay,NA,1658532337,-22.116,14.2845,0,81,57.9,6.15
491,Alexander City,US,1658532192,32.944,-85.9539,75,74,85.5,0.0
492,Mahibadhoo,MV,1658532076,3.7833,72.9667,100,75,82.08,16.6
493,Kangaatsiaq,GL,1658532338,68.3065,-53.4641,100,93,40.73,8.77
494,Payo,ID,1658532338,-3.7508,103.6372,93,98,71.74,2.01
495,Youghal,IE,1658532338,51.95,-7.8506,100,100,62.55,10.63
496,Sindal,DK,1658532339,57.4712,10.2031,90,81,60.53,5.41
497,Alexandria,EG,1658532303,31.2156,29.9553,0,71,77.54,9.04
498,Grand Forks,US,1658532339,47.9417,-97.4337,20,40,87.53,9.22
499,Ambatondrazaka,MG,1658532340,-17.8333,48.4167,73,79,58.71,6.33
500,Natchitoches,US,1658532340,31.7668,-93.1335,0,69,83.25,0.0
501,Butajīra,ET,1658532340,8.1167,38.3667,52,81,59.02,4.43
502,Lavrentiya,RU,1658532341,65.5833,-171.0,100,87,44.28,10.92
503,Ponta Delgada,PT,1658532341,37.7333,-25.6667,20,88,75.51,3.44
504,Suez,EG,1658532342,29.9737,32.5263,2,77,74.62,9.64
505,Nouadhibou,MR,1658532342,20.931,-17.0347,20,88,76.98,8.05
506,Ust'-Kut,RU,1658532342,56.7938,105.7672,100,96,61.25,2.21
507,Union City,US,1658532343,37.5958,-122.0192,0,46,97.79,17.27
508,Quatre Cocos,MU,1658532139,-20.2078,57.7625,17,79,68.11,13.69
509,Bowen,AU,1658532343,-20.0167,148.2333,0,61,62.65,5.17
510,Kasempa,ZM,1658532343,-13.4584,25.8338,77,47,61.7,7.49
511,Nuuk,GL,1658532344,64.1835,-51.7216,20,81,48.81,5.75
512,Port Augusta,AU,1658532344,-32.5,137.7667,43,71,54.7,9.44
513,Nanortalik,GL,1658532345,60.1432,-45.2371,23,84,46.65,4.07
514,Palmas Bellas,PA,1658532345,9.2319,-80.0867,100,82,79.25,0.81
515,Yerbogachën,RU,1658532345,61.2767,108.0108,99,69,66.47,4.43
516,Burns Lake,CA,1658532346,54.2331,-125.7533,19,32,72.82,5.57
517,Vila Franca do Campo,PT,1658532346,37.7167,-25.4333,78,81,75.2,1.52
518,Penzance,GB,1658532347,50.1186,-5.5371,45,79,59.68,9.89
519,Hamilton,US,1658532225,39.1834,-84.5333,0,50,93.42,8.05
520,Repnoye,RU,1658532347,51.5921,43.1861,89,88,59.04,5.93
521,Aswān,EG,1658532347,24.0934,32.907,71,21,87.55,13.71
522,Dumas,US,1658532348,35.8656,-101.9732,0,26,97.61,10.36
523,Thanh Hoa,VN,1658532223,19.8,105.7667,99,93,76.78,2.77
524,Ojinaga,MX,1658532348,29.5667,-104.4167,100,58,100.58,5.75
525,Yuanping,CN,1658532349,38.7153,112.7575,0,70,63.3,0.13
526,Srandakan,ID,1658532349,-7.9386,110.2506,87,88,73.58,4.74
527,Abu Dhabi,AE,1658532349,24.4667,54.3667,0,51,100.51,3.44
528,Bandarbeyla,SO,1658532319,9.4942,50.8122,37,78,77.13,29.64
529,Lorengau,PG,1658532350,-2.0226,147.2712,33,78,82.89,10.38
530,Synya,RU,1658532350,65.3718,58.0387,55,88,41.22,3.42
531,Manta,EC,1658532326,-0.95,-80.7333,20,78,74.98,10.36
532,Alofi,NU,1658532351,-19.0595,-169.9187,80,78,78.69,6.91
533,Cap-aux-Meules,CA,1658532351,47.3821,-61.8597,20,78,77.05,9.22
534,Ulladulla,AU,1658532351,-35.35,150.4667,81,85,55.04,5.77
535,Abu Kamal,SY,1658532352,34.4506,40.9171,0,17,87.55,9.84
536,Mangan,IN,1658532352,27.5167,88.5333,100,92,75.0,3.09
537,Guiglo,CI,1658532353,6.5456,-7.4966,100,78,72.99,5.86
538,Coos Bay,US,1658532238,43.3665,-124.2179,0,79,74.98,20.71
539,Esperance,AU,1658532353,-33.8667,121.9,62,67,55.56,16.49
540,Moroni,KM,1658532354,-11.7022,43.2551,3,76,73.74,4.45
541,Lander,US,1658532354,42.833,-108.7307,0,20,92.16,12.66
542,Almaznyy,RU,1658532354,48.0448,40.045,72,87,56.98,4.61
543,Linxia Chengguanzhen,CN,1658532355,35.6003,103.2064,0,60,56.98,4.81
544,Ljig,RS,1658532309,44.2301,20.2382,0,24,73.09,5.14
545,Kvam,NO,1658532355,61.6656,9.6898,94,78,56.34,2.93
546,Beloha,MG,1658532356,-25.1667,45.05,0,77,63.59,9.15
547,São Sebastião,BR,1658532356,-23.76,-45.4097,3,83,66.47,5.41
548,Celestún,MX,1658532356,20.8667,-90.4,30,70,86.0,16.55
549,Markala,ML,1658532357,13.7021,-6.0659,70,57,85.23,2.84
550,Newport,GB,1658532357,51.5877,-2.9984,20,79,62.64,6.69
551,Merauke,ID,1658532358,-8.4667,140.3333,100,88,76.51,10.92
552,Aksu,CN,1658532358,41.1231,80.2644,0,24,78.55,1.28
553,Bereda,ES,1658532358,43.2686,-7.5406,13,98,59.14,5.44
554,Todos Santos,MX,1658532359,23.45,-110.2167,77,77,100.31,7.43
555,Porto-Novo,BJ,1658532359,6.4965,2.6036,98,85,78.62,7.23
556,Buala,SB,1658532360,-8.145,159.5921,15,72,83.66,5.61
557,Newtownards,GB,1658532360,54.5924,-5.6909,82,85,57.15,3.44
558,Tubualá,PA,1658532360,9.5167,-79.0333,100,81,80.2,2.42
559,Myaundzha,RU,1658532361,63.0494,147.1858,71,56,65.17,2.21
560,San Clemente,US,1658532287,33.427,-117.612,82,71,93.72,5.01
561,Khovd,MN,1658532131,48.0056,91.6419,35,54,60.96,6.22
562,Simao,CN,1658532361,22.7886,100.9748,77,98,63.45,2.3
563,Cassilândia,BR,1658532361,-19.1133,-51.7342,3,38,71.83,4.88
564,Luanda,AO,1658532285,-8.8368,13.2343,75,94,68.0,2.3
565,Pithāpuram,IN,1658532362,17.1167,82.2667,100,90,77.54,8.75
566,Bilibino,RU,1658532362,68.0546,166.4372,25,57,45.21,6.22
567,Kilindoni,TZ,1658532363,-7.9139,39.6668,2,77,75.33,16.6
568,Mil'kovo,RU,1658532363,54.7167,158.6167,97,64,57.2,4.38
569,Sabha,LY,1658532364,27.0377,14.4283,0,22,80.74,8.95
570,Kumul,CN,1658532138,42.8,93.45,0,19,79.09,3.83
571,Nador,MA,1658532364,35.174,-2.9287,100,89,79.05,3.44
572,Astara,AZ,1658532225,38.5,48.6667,0,54,65.1,3.98
573,Shubarshi,KZ,1658532365,48.5872,57.1869,71,55,71.83,4.99
574,Rockland,US,1658532365,41.1668,-74.0496,38,63,84.58,4.99
575,Russell,US,1658532365,32.3502,-85.1999,75,94,76.37,5.75
576,Sanok,PL,1658532365,49.5557,22.2056,57,84,62.28,2.33
577,Panacan,PH,1658532366,9.2463,118.4082,93,84,80.53,5.21
578,Paramonga,PE,1658532366,-10.6667,-77.8333,31,83,62.58,9.13
579,Saucillo,MX,1658532367,28.0167,-105.2833,99,23,94.32,10.42
580,Khasan,RU,1658532367,42.4308,130.6434,100,96,65.44,5.55
581,Leopold,AU,1658532368,-38.1833,144.4667,100,88,52.83,13.8
582,Māngrol,IN,1658532368,21.1167,70.1167,90,82,80.71,16.15
583,Araouane,ML,1658532368,18.9048,-3.5265,67,33,93.81,13.24
584,Gunjur,GM,1658532369,13.2019,-16.7339,100,88,78.49,19.6
585,Gondanglegi,ID,1658532369,-7.7479,112.0132,34,88,72.05,9.95
586,Zhigansk,RU,1658532369,66.7697,123.3711,100,88,54.54,5.97
587,Jonesboro,US,1658532370,35.8423,-90.7043,0,46,95.81,6.91
588,Kushmurun,KZ,1658532370,52.4503,64.6311,7,70,61.66,4.65
589,Torbeyevo,RU,1658532371,54.0797,43.2473,93,93,59.45,7.61
590,Kisangani,CD,1658532371,0.5167,25.2,100,94,71.92,2.62
591,Haapiti,PF,1658532371,-17.5667,-149.8667,6,76,83.93,7.94
592,Mahon,ES,1658532372,39.8885,4.2658,0,94,77.56,5.75
